{
  "type": "FeatureCollection",
  "features": [
    {
  "type": "Feature",
  "geometry": {
    "type": "Point",
    "coordinates": [
      129.7136578,
      33.1681097
    ]
  },
  "properties": {
    "marker-symbol": "star",
    "marker-color": "#000000",
    "name": "Fleet Activities Sasebo",
    "address": "Hirasemachi, Sasebo-shi, Nagasaki-ken 857-0056"
  }
},
    {
      "type": "Feature",
      "geometry": {
        "type": "Point",
        "coordinates": [
          129.67422009999996,
          33.1713994
        ]
      },
      "properties": {
        "marker-symbol": "dog-park",
        "marker-color": "#fa1414",
        "name": "Ikeda Animal Hospital",
        "address": "1002-37 Hinochō, Sasebo-shi, Nagasaki-ken 858-0923",
        "telephone": "0956-28-4045",
        "website": "",
        "english": "Yes",
        "hours": "M-T-F-S-Sun: 0900-1145, 1530-1730 W: 0900-1145. Closed Thursdays and national holidays."
      }
    },
    {
      "type": "Feature",
      "geometry": {
        "type": "Point",
        "coordinates": [
          129.7047657,
          33.166573
        ]
      },
      "properties": {
        "marker-symbol": "dog-park",
        "marker-color": "#fa1414",
        "name": "Hamaguchi Animal Hospital",
        "address": "10-8 Kamishimacho, Sasebo, Nagasaki Prefecture 857-0067",
        "telephone": "0956-25-9914",
        "website": "http://www.hamaguchi-vet.jp",
        "english": "Some",
        "hours": "M-S: 0900-1200, 1500-1830. Closed Sundays and national holidays."
      }
    },
    {
      "type": "Feature",
      "geometry": {
        "type": "Point",
        "coordinates": [
          129.80362300000002,
          33.1359162
        ]
      },
      "properties": {
        "marker-symbol": "dog-park",
        "marker-color": "#fa1414",
        "name": "Miwa Animal Hospital",
        "address": "1101-22 Gonjōjichō, Sasebo-shi, Nagasaki-ken 859-3213",
        "telephone": "0956-38-9555",
        "website": "http://www.gonzyouzi-animal-clinic.co.jp/",
        "english": "Some",
        "hours": "M-T-W-T-F: 0900-1230, 1600-1900. Sat: 0900-1230. Closed Sundays and national holidays."
      }
    },
    {
      "type": "Feature",
      "geometry": {
        "type": "Point",
        "coordinates": [
          129.66743710000003,
          33.1788041
        ]
      },
      "properties": {
        "marker-symbol": "dog-park",
        "marker-color": "#fa1414",
        "name": "Iwakiri Vet Clinic",
        "address": "440-3 Shiinokichō, Sasebo-shi, Nagasaki-ken 858-0925",
        "telephone": "0956-48-8181",
        "website": "",
        "english": "",
        "hours": "M-F: 0900-1200, 1500-1900. Sat: 0900-1200, 1500-1800. Closed Sundays and national holidays."
      }
    },
    {
      "type": "Feature",
      "geometry": {
        "type": "Point",
        "coordinates": [
          129.7730613,
          33.168154
        ]
      },
      "properties": {
        "marker-symbol": "dog-park",
        "marker-color": "#fa1414",
        "name": "Yamanaka Animal Medical Hospital",
        "address": "629-2 Kurokamichō, Sasebo-shi, Nagasaki-ken 857-1152",
        "telephone": "0956-34-0331",
        "website": "",
        "english": "",
        "hours": "M-F: 0900-1200, 1500-1900. Sat: 0900-1200, 1500-1800. Closed Sundays and national holidays."
      }
    },
    {
      "type": "Feature",
      "geometry": {
        "type": "Point",
        "coordinates": [
          129.72480329999996,
          33.2103265
        ]
      },
      "properties": {
        "marker-symbol": "dog-park",
        "marker-color": "#fa1414",
        "name": "Atom Pet Clinic",
        "address": "69-4 Harubunchō, Sasebo-shi, Nagasaki-ken 857-0103",
        "telephone": "0956-40-9045",
        "website": "http://nttbj.itp.ne.jp/0956409045/index.html",
        "english": "",
        "hours": "M-T-W-F-S: 0900-1200, 1500-1900. Sun: 0900-1200. Closed Thursdays and national holidays."
      }
    },
    {
      "type": "Feature",
      "geometry": {
        "type": "Point",
        "coordinates": [
          129.79261599999995,
          33.1302774
        ]
      },
      "properties": {
        "marker-symbol": "dog-park",
        "marker-color": "#fa1414",
        "name": "Tsuruno Animal Hospital",
        "address": "4159-2 Arifukuchō, Sasebo-shi, Nagasaki-ken 859-3241",
        "telephone": "0956-58-6650",
        "website": "http://tsuruno-ah.com/",
        "english": "",
        "hours": "M-F: 0900-1130, 1530-1830. Sat: 0900-1130, 1530-1730. Closed Sundays and national holidays."
      }
    },
    {
      "type": "Feature",
      "geometry": {
        "type": "Point",
        "coordinates": [
          129.73053649999997,
          33.1736133
        ]
      },
      "properties": {
        "marker-symbol": "dog-park",
        "marker-color": "#fa1414",
        "name": "Matsuo Animal Hospital",
        "address": "11-8 Katsutomichō, Sasebo-shi, Nagasaki-ken 857-0803",
        "telephone": "0956-42-1881",
        "website": "http://nttbj.itp.ne.jp/0956421881/index.html",
        "english": "",
        "hours": "M-T-W-F-S: 0900-1200, 1500-1900. Closed Sundays and national holidays."
      }
    },
    {
      "type": "Feature",
      "geometry": {
        "type": "Point",
        "coordinates": [
          129.69753349999996,
          33.2112153
        ]
      },
      "properties": {
        "marker-symbol": "dog-park",
        "marker-color": "#fa1414",
        "name": "Kaize Animal Hospital",
        "address": "1307-4 Yoshiokachō, Sasebo-shi, Nagasaki-ken 857-0143",
        "telephone": "0956-40-7667",
        "website": "http://kaize-ah.com",
        "english": "",
        "hours": "M-T-W-T-F: 0900-1200, 1530-1900. Sat: 0900-1200, 1530-1800. Closed Sundays and national holidays."
      }
    },
    {
      "type": "Feature",
      "geometry": {
        "type": "Point",
        "coordinates": [
          129.749896,
          33.157427
        ]
      },
      "properties": {
        "marker-symbol": "dog-park",
        "marker-color": "#fa1414",
        "name": "Hinata Pet Clinic",
        "address": "386-1 Yamatochō, Sasebo-shi, Nagasaki-ken 857-1165",
        "telephone": "0956-80-4166",
        "website": "http://www.hinata-petclinic.com",
        "english": "",
        "hours": "M-T-W-F-S: 0900-1200, 1530-1900. Sun: 0900-1200. Closed Thursdays and national holidays."
      }
    }
  ]
}
